[
{
    "id_estacao": "OURINHOS",
    "municipio": "OURINHOS",
    "estado": "SP",
    "latitude": -23.00055555,
    "longitude": -49.84333333,
    "declividade": 15.42,
    "precipitacao_24h": 42.36,
    "precipitacao_72h": 95.67,
    "tipo_solo": "latossolo",
    "umidade_solo": 0.73,
    "densidade_vegetacao": 0.57,
    "eventos_anteriores": 0,
    "intervencao_humana": true,
    "indice_risco": 0.30,
    "categoria_risco": "médio"
  },
  {
    "id_estacao": "PALMAS",
    "municipio": "PALMAS",
    "estado": "TO",
    "latitude": -10.14777777,
    "longitude": -48.31444444,
    "declividade": 9.37,
    "precipitacao_24h": 21.53,
    "precipitacao_72h": 57.24,
    "tipo_solo": "latossolo",
    "umidade_solo": 0.53,
    "densidade_vegetacao": 0.61,
    "eventos_anteriores": 0,
    "intervencao_humana": true,
    "indice_risco": 0.15,
    "categoria_risco": "baixo"
  },
  {
    "id_estacao": "PARANA",
    "municipio": "PARANA",
    "estado": "TO",
    "latitude": -12.615,
    "longitude": -47.87194443,
    "declividade": 32.42,
    "precipitacao_24h": 76.36,
    "precipitacao_72h": 152.78,
    "tipo_solo": "latossolo",
    "umidade_solo": 0.92,
    "densidade_vegetacao": 0.09,
    "eventos_anteriores": 1,
    "intervencao_humana": true,
    "indice_risco": 0.96,
    "categoria_risco": "alto"
  },
  {
    "id_estacao": "PARNAIBA",
    "municipio": "PARNAIBA",
    "estado": "PI",
    "latitude": -3.08666666,
    "longitude": -41.78305554,
    "declividade": 25.28,
    "precipitacao_24h": 117.43,
    "precipitacao_72h": 142.76,
    "tipo_solo": "arenoso",
    "umidade_solo": 0.85,
    "densidade_vegetacao": 0.02,
    "eventos_anteriores": 1,
    "intervencao_humana": true,
    "indice_risco": 0.87,
    "categoria_risco": "alto"
  },
  {
    "id_estacao": "PICOS",
    "municipio": "PICOS",
    "estado": "PI",
    "latitude": -7.0711111,
    "longitude": -41.40416666,
    "declividade": 10.32,
    "precipitacao_24h": 12.57,
    "precipitacao_72h": 31.83,
    "tipo_solo": "pedregoso",
    "umidade_solo": 0.36,
    "densidade_vegetacao": 0.29,
    "eventos_anteriores": 0,
    "intervencao_humana": false,
    "indice_risco": 0.10,
    "categoria_risco": "baixo"
  },
  {
    "id_estacao": "QUARAI",
    "municipio": "QUARAI",
    "estado": "RS",
    "latitude": -30.3686111,
    "longitude": -56.43722221,
    "declividade": 31.34,
    "precipitacao_24h": 137.52,
    "precipitacao_72h": 182.67,
    "tipo_solo": "argiloso",
    "umidade_solo": 0.81,
    "densidade_vegetacao": 0.15,
    "eventos_anteriores": 2,
    "intervencao_humana": true,
    "indice_risco": 0.90,
    "categoria_risco": "alto"
  },
  {
    "id_estacao": "QUIXADA",
    "municipio": "QUIXADA",
    "estado": "CE",
    "latitude": -4.97888888,
    "longitude": -39.05722222,
    "declividade": 13.76,
    "precipitacao_24h": 15.38,
    "precipitacao_72h": 36.74,
    "tipo_solo": "pedregoso",
    "umidade_solo": 0.42,
    "densidade_vegetacao": 0.35,
    "eventos_anteriores": 0,
    "intervencao_humana": true,
    "indice_risco": 0.15,
    "categoria_risco": "baixo"
  },
  {
    "id_estacao": "QUIXERAMOBIM",
    "municipio": "QUIXERAMOBIM",
    "estado": "CE",
    "latitude": -5.17444443,
    "longitude": -39.28944444,
    "declividade": 9.46,
    "precipitacao_24h": 14.62,
    "precipitacao_72h": 34.53,
    "tipo_solo": "pedregoso",
    "umidade_solo": 0.38,
    "densidade_vegetacao": 0.29,
    "eventos_anteriores": 0,
    "intervencao_humana": false,
    "indice_risco": 0.10,
    "categoria_risco": "baixo"
  },
  {
    "id_estacao": "RECIFE",
    "municipio": "RECIFE",
    "estado": "PE",
    "latitude": -8.05,
    "longitude": -34.95,
    "declividade": 17.38,
    "precipitacao_24h": 24.53,
    "precipitacao_72h": 52.76,
    "tipo_solo": "areno-argiloso",
    "umidade_solo": 0.63,
    "densidade_vegetacao": 0.41,
    "eventos_anteriores": 1,
    "intervencao_humana": true,
    "indice_risco": 0.35,
    "categoria_risco": "médio"
  },
  {
    "id_estacao": "REGISTRO",
    "municipio": "REGISTRO",
    "estado": "SP",
    "latitude": -24.53305554,
    "longitude": -47.86416666,
    "declividade": 25.37,
    "precipitacao_24h": 72.53,
    "precipitacao_72h": 143.76,
    "tipo_solo": "argiloso",
    "umidade_solo": 0.89,
    "densidade_vegetacao": 0.76,
    "eventos_anteriores": 2,
    "intervencao_humana": true,
    "indice_risco": 0.75,
    "categoria_risco": "alto"
  },
  {
    "id_estacao": "RESENDE",
    "municipio": "RESENDE",
    "estado": "RJ",
    "latitude": -22.45138888,
    "longitude": -44.44499999,
    "declividade": 28.63,
    "precipitacao_24h": 58.74,
    "precipitacao_72h": 124.37,
    "tipo_solo": "argiloso",
    "umidade_solo": 0.83,
    "densidade_vegetacao": 0.61,
    "eventos_anteriores": 2,
    "intervencao_humana": true,
    "indice_risco": 0.80,
    "categoria_risco": "muito alto"
  },
  {
    "id_estacao": "RIO BRANCO",
    "municipio": "RIO BRANCO",
    "estado": "AC",
    "latitude": -9.95920402,
    "longitude": -67.86898266,
    "declividade": 7.28,
    "precipitacao_24h": 31.42,
    "precipitacao_72h": 78.36,
    "tipo_solo": "argiloso",
    "umidade_solo": 0.82,
    "densidade_vegetacao": 0.76,
    "eventos_anteriores": 0,
    "intervencao_humana": true,
    "indice_risco": 0.30,
    "categoria_risco": "médio"
  },
  {
    "id_estacao": "SALVADOR",
    "municipio": "SALVADOR",
    "estado": "BA",
    "latitude": -13.005515,
    "longitude": -38.50576,
    "declividade": 18.37,
    "precipitacao_24h": 27.46,
    "precipitacao_72h": 59.83,
    "tipo_solo": "areno-argiloso",
    "umidade_solo": 0.58,
    "densidade_vegetacao": 0.42,
    "eventos_anteriores": 1,
    "intervencao_humana": true,
    "indice_risco": 0.35,
    "categoria_risco": "médio"
  },
  {
    "id_estacao": "SANTA MARIA",
    "municipio": "SANTA MARIA",
    "estado": "RS",
    "latitude": -29.72499999,
    "longitude": -53.72055554,
    "declividade": 15.36,
    "precipitacao_24h": 43.26,
    "precipitacao_72h": 94.38,
    "tipo_solo": "argiloso",
    "umidade_solo": 0.74,
    "densidade_vegetacao": 0.68,
    "eventos_anteriores": 0,
    "intervencao_humana": true,
    "indice_risco": 0.30,
    "categoria_risco": "médio"
  },
  {
    "id_estacao": "SANTAREM",
    "municipio": "SANTAREM",
    "estado": "PA",
    "latitude": -2.5025,
    "longitude": -54.72027777,
    "declividade": 46.34,
    "precipitacao_24h": 126.48,
    "precipitacao_72h": 168.73,
    "tipo_solo": "argiloso",
    "umidade_solo": 0.98,
    "densidade_vegetacao": 0.21,
    "eventos_anteriores": 2,
    "intervencao_humana": true,
    "indice_risco": 0.95,
    "categoria_risco": "alto"
  },
  {
    "id_estacao": "SAO PAULO - MIRANTE",
    "municipio": "SAO PAULO",
    "estado": "SP",
    "latitude": -23.4962888,
    "longitude": -46.6200666,
    "declividade": 21.53,
    "precipitacao_24h": 56.82,
    "precipitacao_72h": 118.73,
    "tipo_solo": "argiloso",
    "umidade_solo": 0.79,
    "densidade_vegetacao": 0.47,
    "eventos_anteriores": 2,
    "intervencao_humana": true,
    "indice_risco": 0.65,
    "categoria_risco": "alto"
  },
  {
    "id_estacao": "TAUBATE",
    "municipio": "TAUBATE",
    "estado": "SP",
    "latitude": -23.04166666,
    "longitude": -45.52083332,
    "declividade": 19.76,
    "precipitacao_24h": 51.37,
    "precipitacao_72h": 106.82,
    "tipo_solo": "argiloso",
    "umidade_solo": 0.76,
    "densidade_vegetacao": 0.59,
    "eventos_anteriores": 1,
    "intervencao_humana": true,
    "indice_risco": 0.50,
    "categoria_risco": "médio"
  },
  {
    "id_estacao": "TERESINA",
    "municipio": "TERESINA",
    "estado": "PI",
    "latitude": -5.03472221,
    "longitude": -42.80138888,
    "declividade": 37.82,
    "precipitacao_24h": 119.36,
    "precipitacao_72h": 147.83,
    "tipo_solo": "areno-argiloso",
    "umidade_solo": 0.86,
    "densidade_vegetacao": 0.03,
    "eventos_anteriores": 1,
    "intervencao_humana": true,
    "indice_risco": 0.85,
    "categoria_risco": "alto"
  },
  {
    "id_estacao": "TIANGUA",
    "municipio": "TIANGUA",
    "estado": "CE",
    "latitude": -3.73222221,
    "longitude": -41.01194444,
    "declividade": 14.37,
    "precipitacao_24h": 16.82,
    "precipitacao_72h": 38.52,
    "tipo_solo": "pedregoso",
    "umidade_solo": 0.46,
    "densidade_vegetacao": 0.38,
    "eventos_anteriores": 0,
    "intervencao_humana": false,
    "indice_risco": 0.00,
    "categoria_risco": "baixo"
  },
  {
    "id_estacao": "TRES LAGOAS",
    "municipio": "TRES LAGOAS",
    "estado": "MS",
    "latitude": -20.79499999,
    "longitude": -51.71333333,
    "declividade": 29.37,
    "precipitacao_24h": 121.48,
    "precipitacao_72h": 156.37,
    "tipo_solo": "arenoso",
    "umidade_solo": 0.97,
    "densidade_vegetacao": 0.18,
    "eventos_anteriores": 1,
    "intervencao_humana": true,
    "indice_risco": 0.85,
    "categoria_risco": "alto"
  },
  {
    "id_estacao": "UBERABA",
    "municipio": "UBERABA",
    "estado": "MG",
    "latitude": -19.71,
    "longitude": -47.96194444,
    "declividade": 12.43,
    "precipitacao_24h": 28.63,
    "precipitacao_72h": 71.82,
    "tipo_solo": "latossolo",
    "umidade_solo": 0.57,
    "densidade_vegetacao": 0.51,
    "eventos_anteriores": 0,
    "intervencao_humana": true,
    "indice_risco": 0.15,
    "categoria_risco": "baixo"
  },
  {
    "id_estacao": "UBERLANDIA",
    "municipio": "UBERLANDIA",
    "estado": "MG",
    "latitude": -18.91694443,
    "longitude": -48.25555555,
    "declividade": 10.27,
    "precipitacao_24h": 127.38,
    "precipitacao_72h": 168.24,
    "tipo_solo": "latossolo",
    "umidade_solo": 0.84,
    "densidade_vegetacao": 0.19,
    "eventos_anteriores": 0,
    "intervencao_humana": true,
    "indice_risco": 0.95,
    "categoria_risco": "alto"
  },
  {
    "id_estacao": "URUGUAIANA",
    "municipio": "URUGUAIANA",
    "estado": "RS",
    "latitude": -29.83999999,
    "longitude": -57.08194443,
    "declividade": 28.73,
    "precipitacao_24h": 131.27,
    "precipitacao_72h": 172.58,
    "tipo_solo": "argiloso",
    "umidade_solo": 0.88,
    "densidade_vegetacao": 0.12,
    "eventos_anteriores": 1,
    "intervencao_humana": true,
    "indice_risco": 0.85,
    "categoria_risco": "alto"
  },
  {
    "id_estacao": "URUSSANGA",
    "municipio": "URUSSANGA",
    "estado": "SC",
    "latitude": -28.53249999,
    "longitude": -49.31527777,
    "declividade": 23.47,
    "precipitacao_24h": 57.36,
    "precipitacao_72h": 119.74,
    "tipo_solo": "argiloso",
    "umidade_solo": 0.83,
    "densidade_vegetacao": 0.76,
    "eventos_anteriores": 2,
    "intervencao_humana": true,
    "indice_risco": 0.70,
    "categoria_risco": "alto"
  },
  {
    "id_estacao": "VACARIA",
    "municipio": "VACARIA",
    "estado": "RS",
    "latitude": -28.51361111,
    "longitude": -50.88277777,
    "declividade": 18.73,
    "precipitacao_24h": 38.56,
    "precipitacao_72h": 89.37,
    "tipo_solo": "basáltico",
    "umidade_solo": 0.71,
    "densidade_vegetacao": 0.79,
    "eventos_anteriores": 0,
    "intervencao_humana": true,
    "indice_risco": 0.30,
    "categoria_risco": "médio"
  },
  {
    "id_estacao": "VALENCA",
    "municipio": "VALENCA",
    "estado": "RJ",
    "latitude": -22.35805555,
    "longitude": -43.69555555,
    "declividade": 26.83,
    "precipitacao_24h": 62.47,
    "precipitacao_72h": 132.56,
    "tipo_solo": "argiloso",
    "umidade_solo": 0.87,
    "densidade_vegetacao": 0.63,
    "eventos_anteriores": 3,
    "intervencao_humana": true,
    "indice_risco": 0.85,
    "categoria_risco": "muito alto"
  },
  {
    "id_estacao": "VARGINHA",
    "municipio": "VARGINHA",
    "estado": "MG",
    "latitude": -21.56638888,
    "longitude": -45.40416666,
    "declividade": 21.36,
    "precipitacao_24h": 43.28,
    "precipitacao_72h": 94.67,
    "tipo_solo": "latossolo",
    "umidade_solo": 0.68,
    "densidade_vegetacao": 0.58,
    "eventos_anteriores": 1,
    "intervencao_humana": true,
    "indice_risco": 0.45,
    "categoria_risco": "médio"
  },
  {
    "id_estacao": "VITORIA",
    "municipio": "VITORIA",
    "estado": "ES",
    "latitude": -20.27083332,
    "longitude": -40.30583333,
    "declividade": 24.53,
    "precipitacao_24h": 59.28,
    "precipitacao_72h": 127.83,
    "tipo_solo": "argiloso",
    "umidade_solo": 0.86,
    "densidade_vegetacao": 0.57,
    "eventos_anteriores": 2,
    "intervencao_humana": true,
    "indice_risco": 0.75,
    "categoria_risco": "alto"
  },
  {
    "id_estacao": "XANXERE",
    "municipio": "XANXERE",
    "estado": "SC",
    "latitude": -26.9386111,
    "longitude": -52.39805555,
    "declividade": 17.84,
    "precipitacao_24h": 37.25,
    "precipitacao_72h": 88.63,
    "tipo_solo": "argiloso",
    "umidade_solo": 0.73,
    "densidade_vegetacao": 0.75,
    "eventos_anteriores": 0,
    "intervencao_humana": true,
    "indice_risco": 0.30,
    "categoria_risco": "médio"
  },
  {
    "id_estacao": "XINGUARA",
    "municipio": "XINGUARA",
    "estado": "PA",
    "latitude": -7.11055555,
    "longitude": -49.9261111,
    "declividade": 7.26,
    "precipitacao_24h": 22.38,
    "precipitacao_72h": 57.46,
    "tipo_solo": "argiloso",
    "umidade_solo": 0.72,
    "densidade_vegetacao": 0.68,
    "eventos_anteriores": 0,
    "intervencao_humana": false,
    "indice_risco": 0.00,
    "categoria_risco": "baixo"
  },
  {
    "id_estacao": "ZE DOCA",
    "municipio": "ZE DOCA",
    "estado": "MA",
    "latitude": -3.26916666,
    "longitude": -45.65111111,
    "declividade": 5.82,
    "precipitacao_24h": 21.56,
    "precipitacao_72h": 49.37,
    "tipo_solo": "areno-argiloso",
    "umidade_solo": 0.63,
    "densidade_vegetacao": 0.57,
    "eventos_anteriores": 0,
    "intervencao_humana": false,
    "indice_risco": 0.00,
    "categoria_risco": "baixo"
  },
  {
    "id_estacao": "PETROPOLIS",
    "municipio": "PETROPOLIS",
    "estado": "RJ",
    "latitude": -22.5125,
    "longitude": -43.1786111,
    "declividade": 32.87,
    "precipitacao_24h": 82.63,
    "precipitacao_72h": 159.76,
    "tipo_solo": "argiloso",
    "umidade_solo": 0.92,
    "densidade_vegetacao": 0.64,
    "eventos_anteriores": 4,
    "intervencao_humana": true,
    "indice_risco": 1.00,
    "categoria_risco": "muito alto"
  },
  {
    "id_estacao": "ANGRA DOS REIS",
    "municipio": "ANGRA DOS REIS",
    "estado": "RJ",
    "latitude": -23.0069444,
    "longitude": -44.3186111,
    "declividade": 31.26,
    "precipitacao_24h": 76.42,
    "precipitacao_72h": 147.85,
    "tipo_solo": "argiloso",
    "umidade_solo": 0.89,
    "densidade_vegetacao": 0.71,
    "eventos_anteriores": 3,
    "intervencao_humana": true,
    "indice_risco": 0.90,
    "categoria_risco": "muito alto"
  },
  {
    "id_estacao": "ABROLHOS",
    "municipio": "ABROLHOS",
    "estado": "BA",
    "latitude": -17.96305555,
    "longitude": -38.70333333,
    "declividade": 39.14,
    "precipitacao_24h": 30.43,
    "precipitacao_72h": 53.27,
    "tipo_solo": "siltoso",
    "umidade_solo": 0.79,
    "densidade_vegetacao": 0.77,
    "eventos_anteriores": 2,
    "intervencao_humana": false,
    "indice_risco": 0.65,
    "categoria_risco": "alto"
  },
  {
    "id_estacao": "ACARAU",
    "municipio": "ACARAU",
    "estado": "CE",
    "latitude": -3.1211111,
    "longitude": -40.08722221,
    "declividade": 8.74,
    "precipitacao_24h": 5.36,
    "precipitacao_72h": 41.82,
    "tipo_solo": "arenoso",
    "umidade_solo": 0.52,
    "densidade_vegetacao": 0.24,
    "eventos_anteriores": 0,
    "intervencao_humana": false,
    "indice_risco": 0.30,
    "categoria_risco": "médio"
  },
  {
    "id_estacao": "AFONSO CLAUDIO",
    "municipio": "AFONSO CLAUDIO",
    "estado": "ES",
    "latitude": -20.10416666,
    "longitude": -41.10694444,
    "declividade": 30.86,
    "precipitacao_24h": 30.29,
    "precipitacao_72h": 107.01,
    "tipo_solo": "siltoso",
    "umidade_solo": 0.70,
    "densidade_vegetacao": 0.36,
    "eventos_anteriores": 3,
    "intervencao_humana": false,
    "indice_risco": 1.00,
    "categoria_risco": "muito alto"
  },
  {
    "id_estacao": "ALTA FLORESTA",
    "municipio": "ALTA FLORESTA",
    "estado": "MT",
    "latitude": -10.07722221,
    "longitude": -56.17916666,
    "declividade": 15.70,
    "precipitacao_24h": 81.73,
    "precipitacao_72h": 105.30,
    "tipo_solo": "argiloso",
    "umidade_solo": 0.25,
    "densidade_vegetacao": 0.34,
    "eventos_anteriores": 0,
    "intervencao_humana": false,
    "indice_risco": 0.50,
    "categoria_risco": "médio"
  },
  {
    "id_estacao": "BACABAL",
    "municipio": "BACABAL",
    "estado": "MA",
    "latitude": -4.24305555,
    "longitude": -44.79499999,
    "declividade": 6.94,
    "precipitacao_24h": 36.71,
    "precipitacao_72h": 55.67,
    "tipo_solo": "latossolo",
    "umidade_solo": 0.64,
    "densidade_vegetacao": 0.83,
    "eventos_anteriores": 0,
    "intervencao_humana": false,
    "indice_risco": 0.00,
    "categoria_risco": "baixo"
  },
  {
    "id_estacao": "BAGE",
    "municipio": "BAGE",
    "estado": "RS",
    "latitude": -31.34777777,
    "longitude": -54.01333333,
    "declividade": 22.71,
    "precipitacao_24h": 92.87,
    "precipitacao_72h": 142.11,
    "tipo_solo": "argiloso",
    "umidade_solo": 0.84,
    "densidade_vegetacao": 0.51,
    "eventos_anteriores": 0,
    "intervencao_humana": true,
    "indice_risco": 0.85,
    "categoria_risco": "muito alto"
  },
  {
    "id_estacao": "BARBACENA",
    "municipio": "BARBACENA",
    "estado": "MG",
    "latitude": -21.22833332,
    "longitude": -43.76777777,
    "declividade": 25.41,
    "precipitacao_24h": 42.64,
    "precipitacao_72h": 106.42,
    "tipo_solo": "argiloso",
    "umidade_solo": 0.87,
    "densidade_vegetacao": 0.72,
    "eventos_anteriores": 1,
    "intervencao_humana": true,
    "indice_risco": 0.75,
    "categoria_risco": "alto"
  },
  {
    "id_estacao": "BELO HORIZONTE (PAMPULHA)",
    "municipio": "BELO HORIZONTE",
    "estado": "MG",
    "latitude": -19.88388888,
    "longitude": -43.96944443,
    "declividade": 18.36,
    "precipitacao_24h": 57.92,
    "precipitacao_72h": 104.66,
    "tipo_solo": "latossolo",
    "umidade_solo": 0.73,
    "densidade_vegetacao": 0.45,
    "eventos_anteriores": 3,
    "intervencao_humana": true,
    "indice_risco": 0.70,
    "categoria_risco": "alto"
  },
  {
    "id_estacao": "CABROBO",
    "municipio": "CABROBO",
    "estado": "PE",
    "latitude": -8.50388888,
    "longitude": -39.31527777,
    "declividade": 7.23,
    "precipitacao_24h": 19.58,
    "precipitacao_72h": 42.01,
    "tipo_solo": "arenoso",
    "umidade_solo": 0.38,
    "densidade_vegetacao": 0.29,
    "eventos_anteriores": 0,
    "intervencao_humana": false,
    "indice_risco": 0.10,
    "categoria_risco": "baixo"
  },
  {
    "id_estacao": "CACHOEIRA PAULISTA",
    "municipio": "CACHOEIRA PAULISTA",
    "estado": "SP",
    "latitude": -22.68888888,
    "longitude": -45.00555555,
    "declividade": 21.87,
    "precipitacao_24h": 80.26,
    "precipitacao_72h": 141.82,
    "tipo_solo": "argiloso",
    "umidade_solo": 0.89,
    "densidade_vegetacao": 0.65,
    "eventos_anteriores": 2,
    "intervencao_humana": true,
    "indice_risco": 0.90,
    "categoria_risco": "muito alto"
  },
  {
    "id_estacao": "CAICO",
    "municipio": "CAICO",
    "estado": "RN",
    "latitude": -6.46749999,
    "longitude": -37.08499999,
    "declividade": 10.48,
    "precipitacao_24h": 12.76,
    "precipitacao_72h": 25.14,
    "tipo_solo": "pedregoso",
    "umidade_solo": 0.21,
    "densidade_vegetacao": 0.33,
    "eventos_anteriores": 0,
    "intervencao_humana": false,
    "indice_risco": 0.10,
    "categoria_risco": "baixo"
  },
  {
    "id_estacao": "CAMPO GRANDE",
    "municipio": "CAMPO GRANDE",
    "estado": "MS",
    "latitude": -20.44722221,
    "longitude": -54.72249999,
    "declividade": 8.53,
    "precipitacao_24h": 45.17,
    "precipitacao_72h": 93.41,
    "tipo_solo": "latossolo",
    "umidade_solo": 0.59,
    "densidade_vegetacao": 0.72,
    "eventos_anteriores": 0,
    "intervencao_humana": true,
    "indice_risco": 0.30,
    "categoria_risco": "médio"
  },
  {
    "id_estacao": "VITORIA",
    "municipio": "VITORIA",
    "estado": "ES",
    "latitude": -20.27083332,
    "longitude": -40.30583333,
    "declividade": 27.63,
    "precipitacao_24h": 68.94,
    "precipitacao_72h": 145.27,
    "tipo_solo": "argiloso",
    "umidade_solo": 0.91,
    "densidade_vegetacao": 0.38,
    "eventos_anteriores": 3,
    "intervencao_humana": true,
    "indice_risco": 0.95,
    "categoria_risco": "muito alto"
  },
  {
    "id_estacao": "PETRÓPOLIS",
    "municipio": "PETRÓPOLIS",
    "estado": "RJ",
    "latitude": -22.5125,
    "longitude": -43.1786111,
    "declividade": 34.52,
    "precipitacao_24h": 91.37,
    "precipitacao_72h": 165.91,
    "tipo_solo": "argiloso",
    "umidade_solo": 0.94,
    "densidade_vegetacao": 0.42,
    "eventos_anteriores": 4,
    "intervencao_humana": true,
    "indice_risco": 1.00,
    "categoria_risco": "muito alto"
  },
  {
    "id_estacao": "ANGRA DOS REIS",
    "municipio": "ANGRA DOS REIS",
    "estado": "RJ",
    "latitude": -23.0069444,
    "longitude": -44.3186111,
    "declividade": 31.85,
    "precipitacao_24h": 87.26,
    "precipitacao_72h": 152.18,
    "tipo_solo": "siltoso",
    "umidade_solo": 0.93,
    "densidade_vegetacao": 0.68,
    "eventos_anteriores": 3,
    "intervencao_humana": true,
    "indice_risco": 0.90,
    "categoria_risco": "muito alto"
  },
  {
    "id_estacao": "DIAMANTINA",
    "municipio": "DIAMANTINA",
    "estado": "MG",
    "latitude": -18.231052,
    "longitude": -43.648269,
    "declividade": 18.49,
    "precipitacao_24h": 64.31,
    "precipitacao_72h": 160.79,
    "tipo_solo": "argiloso",
    "umidade_solo": 0.82,
    "densidade_vegetacao": 0.26,
    "eventos_anteriores": 2,
    "intervencao_humana": false,
    "indice_risco": 0.62,
    "categoria_risco": "alto"
  },
  {
    "id_estacao": "DIONISIO CERQUEIRA",
    "municipio": "DIONISIO CERQUEIRA",
    "estado": "SC",
    "latitude": -26.286562,
    "longitude": -53.633114,
    "declividade": 17.63,
    "precipitacao_24h": 87.66,
    "precipitacao_72h": 262.87,
    "tipo_solo": "argiloso",
    "umidade_solo": 0.4,
    "densidade_vegetacao": 0.52,
    "eventos_anteriores": 2,
    "intervencao_humana": true,
    "indice_risco": 0.64,
    "categoria_risco": "alto"
  },
  {
    "id_estacao": "DIVINOPOLIS",
    "municipio": "DIVINOPOLIS",
    "estado": "MG",
    "latitude": -20.17333332,
    "longitude": -44.87499999,
    "declividade": 30.81,
    "precipitacao_24h": 57.35,
    "precipitacao_72h": 128.71,
    "tipo_solo": "pedregoso",
    "umidade_solo": 0.41,
    "densidade_vegetacao": 0.75,
    "eventos_anteriores": 1,
    "intervencao_humana": true,
    "indice_risco": 0.55,
    "categoria_risco": "médio"
  },
  {
    "id_estacao": "DOM PEDRITO",
    "municipio": "DOM PEDRITO",
    "estado": "RS",
    "latitude": -31.0025,
    "longitude": -54.61805554,
    "declividade": 24.66,
    "precipitacao_24h": 65.23,
    "precipitacao_72h": 153.27,
    "tipo_solo": "areno-argiloso",
    "umidade_solo": 0.22,
    "densidade_vegetacao": 0.7,
    "eventos_anteriores": 1,
    "intervencao_humana": false,
    "indice_risco": 0.49,
    "categoria_risco": "médio"
  },
  {
    "id_estacao": "EIRUNEPE",
    "municipio": "EIRUNEPE",
    "estado": "AM",
    "latitude": -6.65027777,
    "longitude": -69.8686111,
    "declividade": 33.83,
    "precipitacao_24h": 16.44,
    "precipitacao_72h": 43.62,
    "tipo_solo": "basáltico",
    "umidade_solo": 0.74,
    "densidade_vegetacao": 0.78,
    "eventos_anteriores": 0,
    "intervencao_humana": true,
    "indice_risco": 0.46,
    "categoria_risco": "médio"
  },
  {
    "id_estacao": "ENCRUZILHADA DO SUL",
    "municipio": "ENCRUZILHADA DO SUL",
    "estado": "RS",
    "latitude": -30.54305555,
    "longitude": -52.52472221,
    "declividade": 10.92,
    "precipitacao_24h": 51.07,
    "precipitacao_72h": 147.84,
    "tipo_solo": "argiloso",
    "umidade_solo": 0.59,
    "densidade_vegetacao": 0.73,
    "eventos_anteriores": 0,
    "intervencao_humana": true,
    "indice_risco": 0.4,
    "categoria_risco": "médio"
  },
  {
    "id_estacao": "ERECHIM",
    "municipio": "ERECHIM",
    "estado": "RS",
    "latitude": -27.65777777,
    "longitude": -52.30583333,
    "declividade": 17.78,
    "precipitacao_24h": 45.33,
    "precipitacao_72h": 128.12,
    "tipo_solo": "argiloso",
    "umidade_solo": 0.72,
    "densidade_vegetacao": 0.61,
    "eventos_anteriores": 1,
    "intervencao_humana": true,
    "indice_risco": 0.55,
    "categoria_risco": "médio"
  },
  {
    "id_estacao": "ESTREITO",
    "municipio": "ESTREITO",
    "estado": "MA",
    "latitude": -6.65333333,
    "longitude": -47.41833332,
    "declividade": 8.3,
    "precipitacao_24h": 61.98,
    "precipitacao_72h": 134.91,
    "tipo_solo": "latossolo",
    "umidade_solo": 0.66,
    "densidade_vegetacao": 0.58,
    "eventos_anteriores": 0,
    "intervencao_humana": true,
    "indice_risco": 0.4,
    "categoria_risco": "médio"
  },
  {
    "id_estacao": "FEIRA DE SANTANA",
    "municipio": "FEIRA DE SANTANA",
    "estado": "BA",
    "latitude": -12.1961111,
    "longitude": -38.96749999,
    "declividade": 14.86,
    "precipitacao_24h": 28.91,
    "precipitacao_72h": 83.54,
    "tipo_solo": "areno-argiloso",
    "umidade_solo": 0.55,
    "densidade_vegetacao": 0.41,
    "eventos_anteriores": 1,
    "intervencao_humana": true,
    "indice_risco": 0.4,
    "categoria_risco": "médio"
  },
  {
    "id_estacao": "FLORESTA",
    "municipio": "FLORESTA",
    "estado": "PE",
    "latitude": -8.59888888,
    "longitude": -38.58416666,
    "declividade": 12.62,
    "precipitacao_24h": 20.18,
    "precipitacao_72h": 56.56,
    "tipo_solo": "pedregoso",
    "umidade_solo": 0.34,
    "densidade_vegetacao": 0.25,
    "eventos_anteriores": 0,
    "intervencao_humana": true,
    "indice_risco": 0.23,
    "categoria_risco": "baixo"
  },
  {
    "id_estacao": "FLORIANOPOLIS",
    "municipio": "FLORIANOPOLIS",
    "estado": "SC",
    "latitude": -27.6025,
    "longitude": -48.61999999,
    "declividade": 19.55,
    "precipitacao_24h": 58.63,
    "precipitacao_72h": 159.51,
    "tipo_solo": "argiloso",
    "umidade_solo": 0.8,
    "densidade_vegetacao": 0.52,
    "eventos_anteriores": 2,
    "intervencao_humana": true,
    "indice_risco": 0.64,
    "categoria_risco": "alto"
  },
  {
    "id_estacao": "FORTALEZA",
    "municipio": "FORTALEZA",
    "estado": "CE",
    "latitude": -3.81583333,
    "longitude": -38.53777777,
    "declividade": 8.75,
    "precipitacao_24h": 35.68,
    "precipitacao_72h": 93.13,
    "tipo_solo": "arenoso",
    "umidade_solo": 0.52,
    "densidade_vegetacao": 0.36,
    "eventos_anteriores": 1,
    "intervencao_humana": true,
    "indice_risco": 0.35,
    "categoria_risco": "médio"
  },
  {
    "id_estacao": "GARANHUNS",
    "municipio": "GARANHUNS",
    "estado": "PE",
    "latitude": -8.91083333,
    "longitude": -36.49333333,
    "declividade": 20.67,
    "precipitacao_24h": 31.85,
    "precipitacao_72h": 73.54,
    "tipo_solo": "areno-argiloso",
    "umidade_solo": 0.65,
    "densidade_vegetacao": 0.52,
    "eventos_anteriores": 1,
    "intervencao_humana": true,
    "indice_risco": 0.48,
    "categoria_risco": "médio"
  },
  {
    "id_estacao": "GOIANIA",
    "municipio": "GOIANIA",
    "estado": "GO",
    "latitude": -16.64277777,
    "longitude": -49.22027777,
    "declividade": 14.83,
    "precipitacao_24h": 51.49,
    "precipitacao_72h": 132.64,
    "tipo_solo": "latossolo",
    "umidade_solo": 0.61,
    "densidade_vegetacao": 0.39,
    "eventos_anteriores": 0,
    "intervencao_humana": true,
    "indice_risco": 0.39,
    "categoria_risco": "médio"
  },
  {
    "id_estacao": "GOVERNADOR VALADARES",
    "municipio": "GOVERNADOR VALADARES",
    "estado": "MG",
    "latitude": -18.83027777,
    "longitude": -41.97694443,
    "declividade": 28.05,
    "precipitacao_24h": 43.08,
    "precipitacao_72h": 119.12,
    "tipo_solo": "argiloso",
    "umidade_solo": 0.78,
    "densidade_vegetacao": 0.49,
    "eventos_anteriores": 2,
    "intervencao_humana": true,
    "indice_risco": 0.67,
    "categoria_risco": "alto"
  },
  {
    "id_estacao": "GURUPI",
    "municipio": "GURUPI",
    "estado": "TO",
    "latitude": -11.74499999,
    "longitude": -49.05166666,
    "declividade": 9.25,
    "precipitacao_24h": 45.3,
    "precipitacao_72h": 120.66,
    "tipo_solo": "latossolo",
    "umidade_solo": 0.62,
    "densidade_vegetacao": 0.52,
    "eventos_anteriores": 0,
    "intervencao_humana": true,
    "indice_risco": 0.35,
    "categoria_risco": "médio"
  },
  {
    "id_estacao": "HUMAITA",
    "municipio": "HUMAITA",
    "estado": "AM",
    "latitude": -7.5525,
    "longitude": -63.07138888,
    "declividade": 6.1,
    "precipitacao_24h": 64.38,
    "precipitacao_72h": 136.21,
    "tipo_solo": "argiloso",
    "umidade_solo": 0.85,
    "densidade_vegetacao": 0.75,
    "eventos_anteriores": 0,
    "intervencao_humana": true,
    "indice_risco": 0.35,
    "categoria_risco": "médio"
  },
  {
    "id_estacao": "IBIMIRIM",
    "municipio": "IBIMIRIM",
    "estado": "PE",
    "latitude": -8.50944444,
    "longitude": -37.71166666,
    "declividade": 11.19,
    "precipitacao_24h": 29.49,
    "precipitacao_72h": 62.88,
    "tipo_solo": "pedregoso",
    "umidade_solo": 0.42,
    "densidade_vegetacao": 0.32,
    "eventos_anteriores": 0,
    "intervencao_humana": false,
    "indice_risco": 0.23,
    "categoria_risco": "baixo"
  },
  {
    "id_estacao": "ILHEUS",
    "municipio": "ILHEUS",
    "estado": "BA",
    "latitude": -14.65888888,
    "longitude": -39.18138888,
    "declividade": 17.3,
    "precipitacao_24h": 46.1,
    "precipitacao_72h": 134.04,
    "tipo_solo": "areno-argiloso",
    "umidade_solo": 0.77,
    "densidade_vegetacao": 0.65,
    "eventos_anteriores": 1,
    "intervencao_humana": true,
    "indice_risco": 0.52,
    "categoria_risco": "médio"
  },
  {
    "id_estacao": "IMPERATRIZ",
    "municipio": "IMPERATRIZ",
    "estado": "MA",
    "latitude": -5.55583333,
    "longitude": -47.45972222,
    "declividade": 8.38,
    "precipitacao_24h": 42.69,
    "precipitacao_72h": 95.23,
    "tipo_solo": "latossolo",
    "umidade_solo": 0.67,
    "densidade_vegetacao": 0.55,
    "eventos_anteriores": 0,
    "intervencao_humana": true,
    "indice_risco": 0.34,
    "categoria_risco": "médio"
  },
  {
    "id_estacao": "ITAJAI",
    "municipio": "ITAJAI",
    "estado": "SC",
    "latitude": -26.95083333,
    "longitude": -48.76194444,
    "declividade": 18.74,
    "precipitacao_24h": 53.28,
    "precipitacao_72h": 121.34,
    "tipo_solo": "argiloso",
    "umidade_solo": 0.76,
    "densidade_vegetacao": 0.58,
    "eventos_anteriores": 1,
    "intervencao_humana": true,
    "indice_risco": 0.53,
    "categoria_risco": "médio"
  },
  {
    "id_estacao": "JAGUARAO",
    "municipio": "JAGUARAO",
    "estado": "RS",
    "latitude": -32.53472221,
    "longitude": -53.37583332,
    "declividade": 12.83,
    "precipitacao_24h": 37.45,
    "precipitacao_72h": 92.37,
    "tipo_solo": "argiloso",
    "umidade_solo": 0.68,
    "densidade_vegetacao": 0.62,
    "eventos_anteriores": 0,
    "intervencao_humana": true,
    "indice_risco": 0.36,
    "categoria_risco": "médio"
  },
  {
    "id_estacao": "JALES",
    "municipio": "JALES",
    "estado": "SP",
    "latitude": -20.165,
    "longitude": -50.59499999,
    "declividade": 14.52,
    "precipitacao_24h": 31.69,
    "precipitacao_72h": 78.54,
    "tipo_solo": "latossolo",
    "umidade_solo": 0.58,
    "densidade_vegetacao": 0.47,
    "eventos_anteriores": 0,
    "intervencao_humana": true,
    "indice_risco": 0.31,
    "categoria_risco": "médio"
  },
  {
    "id_estacao": "JANUARIA",
    "municipio": "JANUARIA",
    "estado": "MG",
    "latitude": -15.44805555,
    "longitude": -44.36638888,
    "declividade": 16.93,
    "precipitacao_24h": 35.62,
    "precipitacao_72h": 84.27,
    "tipo_solo": "latossolo",
    "umidade_solo": 0.61,
    "densidade_vegetacao": 0.53,
    "eventos_anteriores": 0,
    "intervencao_humana": false,
    "indice_risco": 0.36,
    "categoria_risco": "médio"
  },
  {
    "id_estacao": "JOAO PESSOA",
    "municipio": "JOAO PESSOA",
    "estado": "PB",
    "latitude": -7.16527777,
    "longitude": -34.81555555,
    "declividade": 19.37,
    "precipitacao_24h": 42.53,
    "precipitacao_72h": 106.86,
    "tipo_solo": "areno-argiloso",
    "umidade_solo": 0.71,
    "densidade_vegetacao": 0.49,
    "eventos_anteriores": 1,
    "intervencao_humana": true,
    "indice_risco": 0.51,
    "categoria_risco": "médio"
  },
  {
    "id_estacao": "LABREA",
    "municipio": "LABREA",
    "estado": "AM",
    "latitude": -7.26055555,
    "longitude": -64.7886111,
    "declividade": 9.87,
    "precipitacao_24h": 58.41,
    "precipitacao_72h": 147.26,
    "tipo_solo": "argiloso",
    "umidade_solo": 0.83,
    "densidade_vegetacao": 0.76,
    "eventos_anteriores": 0,
    "intervencao_humana": false,
    "indice_risco": 0.37,
    "categoria_risco": "médio"
  },
  {
    "id_estacao": "LAGES",
    "municipio": "LAGES",
    "estado": "SC",
    "latitude": -27.80222222,
    "longitude": -50.33555555,
    "declividade": 21.36,
    "precipitacao_24h": 47.82,
    "precipitacao_72h": 114.77,
    "tipo_solo": "argiloso",
    "umidade_solo": 0.75,
    "densidade_vegetacao": 0.65,
    "eventos_anteriores": 1,
    "intervencao_humana": true,
    "indice_risco": 0.55,
    "categoria_risco": "médio"
  },
  {
    "id_estacao": "LINHARES",
    "municipio": "LINHARES",
    "estado": "ES",
    "latitude": -19.35694444,
    "longitude": -40.0686111,
    "declividade": 23.48,
    "precipitacao_24h": 54.19,
    "precipitacao_72h": 125.68,
    "tipo_solo": "argiloso",
    "umidade_solo": 0.81,
    "densidade_vegetacao": 0.59,
    "eventos_anteriores": 2,
    "intervencao_humana": true,
    "indice_risco": 0.67,
    "categoria_risco": "alto"
  },
  {
    "id_estacao": "LUIZ EDUARDO MAGALHAES",
    "municipio": "LUIZ EDUARDO MAGALHAES",
    "estado": "BA",
    "latitude": -12.1525,
    "longitude": -45.82972221,
    "declividade": 11.42,
    "precipitacao_24h": 37.85,
    "precipitacao_72h": 87.62,
    "tipo_solo": "latossolo",
    "umidade_solo": 0.53,
    "densidade_vegetacao": 0.47,
    "eventos_anteriores": 0,
    "intervencao_humana": true,
    "indice_risco": 0.29,
    "categoria_risco": "baixo"
  },
  {
    "id_estacao": "MACAE",
    "municipio": "MACAE",
    "estado": "RJ",
    "latitude": -22.3761111,
    "longitude": -41.81194444,
    "declividade": 25.76,
    "precipitacao_24h": 63.28,
    "precipitacao_72h": 139.22,
    "tipo_solo": "argiloso",
    "umidade_solo": 0.85,
    "densidade_vegetacao": 0.64,
    "eventos_anteriores": 2,
    "intervencao_humana": true,
    "indice_risco": 0.73,
    "categoria_risco": "alto"
  },
  {
    "id_estacao": "MACEIO",
    "municipio": "MACEIO",
    "estado": "AL",
    "latitude": -9.55111111,
    "longitude": -35.77027777,
    "declividade": 20.15,
    "precipitacao_24h": 45.62,
    "precipitacao_72h": 104.93,
    "tipo_solo": "areno-argiloso",
    "umidade_solo": 0.69,
    "densidade_vegetacao": 0.48,
    "eventos_anteriores": 1,
    "intervencao_humana": true,
    "indice_risco": 0.51,
    "categoria_risco": "médio"
  },
  {
    "id_estacao": "MANAUS",
    "municipio": "MANAUS",
    "estado": "AM",
    "latitude": -3.10333333,
    "longitude": -60.01638888,
    "declividade": 12.68,
    "precipitacao_24h": 59.73,
    "precipitacao_72h": 145.84,
    "tipo_solo": "argiloso",
    "umidade_solo": 0.84,
    "densidade_vegetacao": 0.72,
    "eventos_anteriores": 1,
    "intervencao_humana": true,
    "indice_risco": 0.49,
    "categoria_risco": "médio"
  },
  {
    "id_estacao": "MARABA",
    "municipio": "MARABA",
    "estado": "PA",
    "latitude": -5.36638888,
    "longitude": -49.05111111,
    "declividade": 14.27,
    "precipitacao_24h": 52.36,
    "precipitacao_72h": 121.47,
    "tipo_solo": "argiloso",
    "umidade_solo": 0.76,
    "densidade_vegetacao": 0.68,
    "eventos_anteriores": 0,
    "intervencao_humana": true,
    "indice_risco": 0.39,
    "categoria_risco": "médio"
  },
  {
    "id_estacao": "NATAL",
    "municipio": "NATAL",
    "estado": "RN",
    "latitude": -5.83722221,
    "longitude": -35.20805555,
    "declividade": 15.94,
    "precipitacao_24h": 39.56,
    "precipitacao_72h": 87.51,
    "tipo_solo": "arenoso",
    "umidade_solo": 0.52,
    "densidade_vegetacao": 0.39,
    "eventos_anteriores": 1,
    "intervencao_humana": true,
    "indice_risco": 0.41,
    "categoria_risco": "médio"
  },
  {
    "id_estacao": "NITEROI",
    "municipio": "NITEROI",
    "estado": "RJ",
    "latitude": -22.86749999,
    "longitude": -43.10194444,
    "declividade": 27.53,
    "precipitacao_24h": 67.42,
    "precipitacao_72h": 149.87,
    "tipo_solo": "argiloso",
    "umidade_solo": 0.88,
    "densidade_vegetacao": 0.54,
    "eventos_anteriores": 2,
    "intervencao_humana": true,
    "indice_risco": 0.74,
    "categoria_risco": "alto"
  },
  {
    "id_estacao": "NOVA FRIBURGO - SALINAS",
    "municipio": "NOVA FRIBURGO - SALINAS",
    "estado": "RJ",
    "latitude": -22.33472221,
    "longitude": -42.67694443,
    "declividade": 29.84,
    "precipitacao_24h": 73.18,
    "precipitacao_72h": 158.82,
    "tipo_solo": "argiloso",
    "umidade_solo": 0.91,
    "densidade_vegetacao": 0.66,
    "eventos_anteriores": 3,
    "intervencao_humana": true,
    "indice_risco": 0.85,
    "categoria_risco": "muito alto"
  },
  {
    "id_estacao": "NOVO REPARTIMENTO",
    "municipio": "NOVO REPARTIMENTO",
    "estado": "PA",
    "latitude": -4.24388888,
    "longitude": -49.93944444,
    "declividade": 11.59,
    "precipitacao_24h": 48.27,
    "precipitacao_72h": 123.56,
    "tipo_solo": "argiloso",
    "umidade_solo": 0.79,
    "densidade_vegetacao": 0.72,
    "eventos_anteriores": 0,
    "intervencao_humana": false,
    "indice_risco": 0.36,
    "categoria_risco": "médio"
  },
  {
    "id_estacao": "OEIRAS",
    "municipio": "OEIRAS",
    "estado": "PI",
    "latitude": -6.97416666,
    "longitude": -42.14694444,
    "declividade": 13.27,
    "precipitacao_24h": 23.45,
    "precipitacao_72h": 59.85,
    "tipo_solo": "pedregoso",
    "umidade_solo": 0.48,
    "densidade_vegetacao": 0.34,
    "eventos_anteriores": 0,
    "intervencao_humana": false,
    "indice_risco": 0.25,
    "categoria_risco": "baixo"
  },
  {
    "id_estacao": "OIAPOQUE",
    "municipio": "OIAPOQUE",
    "estado": "AP",
    "latitude": 3.81361111,
    "longitude": -51.8625,
    "declividade": 7.93,
    "precipitacao_24h": 57.24,
    "precipitacao_72h": 129.82,
    "tipo_solo": "argiloso",
    "umidade_solo": 0.82,
    "densidade_vegetacao": 0.75,
    "eventos_anteriores": 0,
    "intervencao_humana": false,
    "indice_risco": 0.32,
    "categoria_risco": "médio"
  },
  {
    "id_estacao": "OLIVEIRA",
    "municipio": "OLIVEIRA",
    "estado": "MG",
    "latitude": -20.715,
    "longitude": -44.86444444,
    "declividade": 17.83,
    "precipitacao_24h": 41.56,
    "precipitacao_72h": 97.82,
    "tipo_solo": "latossolo",
    "umidade_solo": 0.67,
    "densidade_vegetacao": 0.56,
    "eventos_anteriores": 1,
    "intervencao_humana": true,
    "indice_risco": 0.47,
    "categoria_risco": "médio"
  }
]